#=====================================================
# File: case-settings-manual-analysis-v1.yaml
# Version 1.0.0
# Author: Kevin Thiel
# Creation Date: June 2024
# Description:
# This settings file provides information for each case
# that is included in the manual analysis to create a 
# statistically robust sample.
# 
# Change log:
#  20241230: Added test case for machine learning application 
#=====================================================

#cases: ['20220423-ok', '20220504-tx', '20220612-co', '20220614-ne', '20220921-ut', '20220625-tn', '20220322-al']
#cases: ['20220514-test-conus']
cases: ['20220514-test-nwar']

20220423-ok:
  case_name: '20220423 Oklahoma Supercell Case'

  start_time: '20220423-2100'
  end_time: '20220424-0200'

  ul_lat: 37.39
  ul_lon: -101.03
  lr_lat: 31.97
  lr_lon: -94.11

  glm16_all: 'GLM16allflashes_v1_s202204232000_s202204241000_c202402271317.csv'

20220504-tx:
  case_name: '20220504 Texas Supercell Case' 

  start_time: '20220504-1600'
  end_time: '20220505-0400'

  ul_lat: 37.00
  ul_lon: -103.00
  lr_lat: 31.97
  lr_lon: -95.14

  glm16_all: 'GLM16allflashes_v1_s202205041500_e202205050400_c202406181523.csv'

20220612-co:
  case_name: '20220612 High Plains Case'

  start_time: '20220612-1900'
  end_time: '20220613-0300'

  ul_lat: 45.85
  ul_lon: -109.05
  lr_lat: 37.00
  lr_lon: -97.27

  glm16_all: 'GLM16allflashes_v1_s202206121800_e202206130300_c202406181525.csv'

20220614-ne:
  case_name: '20220614 Central Plains Case'

  start_time: '20220614-2200'
  end_time: '20220615-0600'

  ul_lat: 43.25
  ul_lon: -109.05
  lr_lat: 37.32
  lr_lon: -91.12

  glm16_all: 'GLM16allflashes_v1_s202206142100_e202206150600_c202406181531.csv'

20220921-ut:
  case_name: '20220921 Intermountain West Case'

  start_time: '20220921-1600'
  end_time: '20220921-2000'

  ul_lat: 44.67
  ul_lon: -116.98
  lr_lat: 39.59
  lr_lon: -109.10

  glm16_all: 'GLM16allflashes_v1_s202209211500_e202209220400_c202406181533.csv'

20220625-tn:
  case_name: '20220625 Tennessee Valley Case'

  start_time: '20220625-1500'
  end_time: '20220626-0100'

  ul_lat: 38.29
  ul_lon: -85.78
  lr_lat: 35.17
  lr_lon: -80.94

  glm16_all: 'GLM16allflashes_v1_s202206251400_e202206260100_c202406181535.csv'

20220322-al:
  case_name: '20220322 Alabama PERiLS Case'

  start_time: '20220322-1900'
  end_time: '20220322-2200'

  ul_lat: 34.07
  ul_lon: -89.10
  lr_lat: 32.30
  lr_lon: -87.43

  glm16_all: 'GLM16allflashes_v1_s202203221600_s202203230800_c202402131406.csv'


#Special test case for the machine learning case
20220514-test-conus:
  case_name: '20220514 CONUS Test Case'

  start_time: '20220514-1500'
  end_time: '20220515-0300'

  ul_lat: 43.00
  ul_lon: -104.00
  lr_lat: 32.00
  lr_lon: -77.00

  glm16_all: 'GLM16allflashes_v1_s202205141400_e202205150400_c202412301730.csv'


# Super Special test case for the machine learning case (NW AR only)
20220514-test-nwar:
  case_name: '20220514 CONUS Test Case'

  start_time: '20220514-1500'
  end_time: '20220515-0400'

  ul_lat: 38.00
  ul_lon: -96.00
  lr_lat: 33.00
  lr_lon: -90.00

  glm16_all: 'GLM16allflashes_v1_s202205141400_e202205150400_c202412301730.csv'